{"type":"FeatureCollection","features":[{"type":"Feature","id":1,"geometry":{"type":"Point","coordinates":[135.189294,34.700959999999995]},"properties":{"ロケ地ID":22,"エリア":"中央区","ロケ地名":"萌黄の館（北野町）","ロケ地名_よみ_":"もえぎのやかた","郵便番号":"650-0002","住所":"神戸市中央区北野町3-10-11","緯度":34.70096,"経度":135.189294,"撮影作品1":"少年H","撮影作品1_情報":"少年Hと父親・盛夫がドイツ人オッペンハイマーさんの自宅に洋服を届けるシーンを撮影","撮影作品2":null,"撮影作品2_情報":null,"撮影作品3":null,"撮影作品3_情報":null,"撮影作品4":null,"撮影作品4_情報":null,"FID":1}},{"type":"Feature","id":2,"geometry":{"type":"Point","coordinates":[135.191397,34.69433299999998]},"properties":{"ロケ地ID":23,"エリア":"中央区","ロケ地名":"クラブ月世界","ロケ地名_よみ_":"くらぶげっせかい","郵便番号":"650-0011","住所":"神戸市中央区下山手通1-3-8","緯度":34.694333,"経度":135.191397,"撮影作品1":"夏の終り","撮影作品1_情報":"昭和30年代のキャバレーでのシーン。満島ひかりさんと綾野剛さんが出演","撮影作品2":"新宿インシデント","撮影作品2_情報":"鉄頭（ジャッキー・チェンさん）が働くクラブフォルモサのシーンを撮影","撮影作品3":null,"撮影作品3_情報":null,"撮影作品4":null,"撮影作品4_情報":null,"FID":2}},{"type":"Feature","id":3,"geometry":{"type":"Point","coordinates":[135.199122,34.685064000000004]},"properties":{"ロケ地ID":24,"エリア":"中央区","ロケ地名":"デザイン・クリエイティブセンター神戸（KIITO）","ロケ地名_よみ_":"でざいんくりえいてぃぶせんたーこうべ","郵便番号":"651-0082","住所":"神戸市中央区小野浜町1-4","緯度":34.685064,"経度":135.199122,"撮影作品1":"シャニダールの花","撮影作品1_情報":"シャニダール研究所などたくさんのシーンを撮影","撮影作品2":"マイ・バック・ページ","撮影作品2_情報":"新聞社と週刊誌編集部の屋内セットを建て込んでロケ","撮影作品3":null,"撮影作品3_情報":null,"撮影作品4":null,"撮影作品4_情報":null,"FID":3}},{"type":"Feature","id":4,"geometry":{"type":"Point","coordinates":[135.181108,34.69279599999999]},"properties":{"ロケ地ID":25,"エリア":"中央区","ロケ地名":"相楽園会館","ロケ地名_よみ_":"そうらくえんかいかん","郵便番号":"650-0004","住所":"神戸市中央区中山手通5-3-1","緯度":34.692796,"経度":135.181108,"撮影作品1":"アウトレイジ　ビヨンド","撮影作品1_情報":"花菱会（神山繁さん、西田敏行さん）らの事務所を、大友（ビートたけしさん）訪ねるシーンなどを撮影","撮影作品2":null,"撮影作品2_情報":null,"撮影作品3":null,"撮影作品3_情報":null,"撮影作品4":null,"撮影作品4_情報":null,"FID":4}},{"type":"Feature","id":5,"geometry":{"type":"Point","coordinates":[135.192336,34.68672199999999]},"properties":{"ロケ地ID":26,"エリア":"中央区","ロケ地名":"神港ビルヂング","ロケ地名_よみ_":"しんこうびるぢんぐ","郵便番号":"650-0024","住所":"神戸市中央区海岸通8","緯度":34.686722,"経度":135.192336,"撮影作品1":"黄金を抱いて翔べ","撮影作品1_情報":"銀行本店の外観","撮影作品2":null,"撮影作品2_情報":null,"撮影作品3":null,"撮影作品3_情報":null,"撮影作品4":null,"撮影作品4_情報":null,"FID":5}},{"type":"Feature","id":6,"geometry":{"type":"Point","coordinates":[135.228742,34.637143999999985]},"properties":{"ロケ地ID":27,"エリア":"中央区","ロケ地名":"神戸空港","ロケ地名_よみ_":"こうべくうこう","郵便番号":"650-0048","住所":"神戸市中央区神戸空港1","緯度":34.637144,"経度":135.228742,"撮影作品1":"BRAVE HEARTS 海猿","撮影作品1_情報":"神戸空港の誘導灯を羽田空港の誘導灯に見立て、海上保安庁の巡視船が近づく姿をヘリで空撮","撮影作品2":"ウルトラマンメビウス＆ウルトラ兄弟","撮影作品2_情報":"物語りの冒頭、ヒビノ・ミライ（五十嵐隼士さん）はここに降り立った。","撮影作品3":null,"撮影作品3_情報":null,"撮影作品4":null,"撮影作品4_情報":null,"FID":6}},{"type":"Feature","id":7,"geometry":{"type":"Point","coordinates":[135.198945,34.68448999999999]},"properties":{"ロケ地ID":28,"エリア":"中央区","ロケ地名":"新港貿易会館","ロケ地名_よみ_":"しんこうぼうえきかいかん","郵便番号":"650-0041","住所":"神戸市中央区新港町8-2","緯度":34.68449,"経度":135.198945,"撮影作品1":"ALWAYS三丁目の夕日64","撮影作品1_情報":"昭和64年の出版社の階段を、茶川（吉岡秀隆さん）が歩くシーンを撮影","撮影作品2":"ミロクローゼ","撮影作品2_情報":"青春悩み相談員熊谷ベッソン（山田孝之さん）の事務所。玄関や廊下でもダンス！","撮影作品3":null,"撮影作品3_情報":null,"撮影作品4":null,"撮影作品4_情報":null,"FID":7}},{"type":"Feature","id":8,"geometry":{"type":"Point","coordinates":[135.203016,34.68029899999999]},"properties":{"ロケ地ID":29,"エリア":"中央区","ロケ地名":"神戸ポートターミナル","ロケ地名_よみ_":"こうべぽーとたーみなる","郵便番号":"650-0041","住所":"神戸市中央区新港町4-5","緯度":34.680299,"経度":135.203016,"撮影作品1":"わが母の記","撮影作品1_情報":"ハワイへ出る大型客船の見送りの歓声が響く岸壁に、洪作（役所広司）がやってくるシーン","撮影作品2":null,"撮影作品2_情報":null,"撮影作品3":null,"撮影作品3_情報":null,"撮影作品4":null,"撮影作品4_情報":null,"FID":8}},{"type":"Feature","id":9,"geometry":{"type":"Point","coordinates":[135.213794,34.66597500000001]},"properties":{"ロケ地ID":30,"エリア":"中央区","ロケ地名":"ポートアイランド市民広場","ロケ地名_よみ_":"ぽーとあいらんどしみんひろば","郵便番号":"650-0046","住所":"神戸市中央区港島中町6-9-2","緯度":34.665975,"経度":135.213794,"撮影作品1":"DOG×POLICE「純白の絆」","撮影作品1_情報":"警備犬を扱う警察官（市原隼人さん、戸田恵梨香さん）らが、爆破予告された建物広場に集結し、大活躍","撮影作品2":"新宿インシデント","撮影作品2_情報":"阿傑（ダニエル・ウーさん）が幻覚に追われるシーン","撮影作品3":"ウルトラマンメビウス＆ウルトラ兄弟","撮影作品3_情報":"人々がニセメビウスの攻撃に逃げ惑う","撮影作品4":null,"撮影作品4_情報":null,"FID":9}},{"type":"Feature","id":10,"geometry":{"type":"Point","coordinates":[135.056777,34.67768799999999]},"properties":{"ロケ地ID":31,"エリア":"西区","ロケ地名":"神戸芸術工科大学","ロケ地名_よみ_":"こうべげきじゅつこうかだいがく","郵便番号":"651-2103","住所":"神戸市西区学園西町8-1-1","緯度":34.677688,"経度":135.056777,"撮影作品1":"シャニダールの花","撮影作品1_情報":"シャニダール研究所施設のシーンを撮影","撮影作品2":"生きてるものはいないのか","撮影作品2_情報":"多くのシーンをこちらで撮影","撮影作品3":null,"撮影作品3_情報":null,"撮影作品4":null,"撮影作品4_情報":null,"FID":10}},{"type":"Feature","id":11,"geometry":{"type":"Point","coordinates":[135.215263,34.69826099999999]},"properties":{"ロケ地ID":32,"エリア":"中央区","ロケ地名":"人と防災未来センター","ロケ地名_よみ_":"ひととぼうさいみらいせんたー","郵便番号":"651-0073","住所":"神戸市中央区脇浜海岸通1-5-2","緯度":34.698261,"経度":135.215263,"撮影作品1":"メモリーズ・コーナー","撮影作品1_情報":"岡部（西島秀俊さん）はここの通訳で、取材にきたアダ（デボラ・フランソワさん）と出会うシーンを撮影","撮影作品2":null,"撮影作品2_情報":null,"撮影作品3":null,"撮影作品3_情報":null,"撮影作品4":null,"撮影作品4_情報":null,"FID":11}},{"type":"Feature","id":12,"geometry":{"type":"Point","coordinates":[135.195222,34.700836]},"properties":{"ロケ地ID":33,"エリア":"中央区","ロケ地名":"カフェフロインドリーブ","ロケ地名_よみ_":"かふぇふろいんどりーぶ","郵便番号":"651-0092","住所":"神戸市中央区生田町4-6-15","緯度":34.700836,"経度":135.195222,"撮影作品1":"阪急電車","撮影作品1_情報":"冒頭、翔子（中谷美紀さん）が婚約者（鈴木亮平さん）と話し合ったカフェ","撮影作品2":null,"撮影作品2_情報":null,"撮影作品3":null,"撮影作品3_情報":null,"撮影作品4":null,"撮影作品4_情報":null,"FID":12}},{"type":"Feature","id":13,"geometry":{"type":"Point","coordinates":[135.17724,34.66625399999999]},"properties":{"ロケ地ID":35,"エリア":"兵庫区","ロケ地名":"神戸市中央卸売市場本場","ロケ地名_よみ_":"こうべしちゅうおうおろしうりいちばほんば","郵便番号":"652-0844","住所":"神戸市兵庫区中之島2-1-3","緯度":34.666254,"経度":135.17724,"撮影作品1":"新宿インシデント","撮影作品1_情報":"北野（竹中直人さん）を鉄頭（ジャッキー・チェンさん）がかばうシーンを撮影","撮影作品2":"Sweet Rain 死神の精度","撮影作品2_情報":"一恵（小西真奈美さん）がストーカー？から逃げて来たところに、千葉（金城武さん）が登場する第一部のラストシーンを撮影","撮影作品3":"クローズZERO","撮影作品3_情報":"芹沢（山田孝之さん）がバイクで逃げるシーン、源治（小栗旬さん）が芹沢に果し合いを申し込むシーンを撮影","撮影作品4":"GANTZ","撮影作品4_情報":null,"FID":13}},{"type":"Feature","id":14,"geometry":{"type":"Point","coordinates":[135.150762,34.66575799999999]},"properties":{"ロケ地ID":36,"エリア":"長田区","ロケ地名":"長田区役所","ロケ地名_よみ_":"ながたくやくしょ","郵便番号":"653-0016","住所":"神戸市長田区北町3-4-3","緯度":34.665758,"経度":135.150762,"撮影作品1":"ふたたび　SWING ME AGAIN","撮影作品1_情報":"神戸の警察に保護された貴島（財津一郎さん）を、孫（鈴木亮平さん）が迎えにくるシーンを撮影","撮影作品2":null,"撮影作品2_情報":null,"撮影作品3":null,"撮影作品3_情報":null,"撮影作品4":null,"撮影作品4_情報":null,"FID":14}},{"type":"Feature","id":15,"geometry":{"type":"Point","coordinates":[135.191472,34.69356499999999]},"properties":{"ロケ地ID":39,"エリア":"中央区","ロケ地名":"東門街","ロケ地名_よみ_":"ひがしもんがい","郵便番号":"650-0011","住所":"神戸市中央区下山手通1","緯度":34.693565,"経度":135.191472,"撮影作品1":"新宿インシデント","撮影作品1_情報":"鉄頭（ジャッキー・チェンさん）と江口（加藤雅也さん）が追手から逃げる。","撮影作品2":"Sweet Rain 死神の精度","撮影作品2_情報":"一恵（小西真奈美さん）がストーカー？から逃げるシーン","撮影作品3":"RUN 2 U","撮影作品3_情報":"なし","撮影作品4":null,"撮影作品4_情報":null,"FID":15}},{"type":"Feature","id":16,"geometry":{"type":"Point","coordinates":[135.194618,34.69296399999999]},"properties":{"ロケ地ID":40,"エリア":"中央区","ロケ地名":"フラワーロード","ロケ地名_よみ_":"ふらわーろーど","郵便番号":"650-0001","住所":"神戸市中央区加納町5","緯度":34.692964,"経度":135.194618,"撮影作品1":"悲しいボーイフレンド","撮影作品1_情報":"岩津（寺脇康文さん）と香奈（寺島咲さん）がバスで神戸に到着するシーンを撮影","撮影作品2":"陽気なギャングが地球を回す","撮影作品2_情報":"パレードのシーンは神戸まつりで撮影","撮影作品3":null,"撮影作品3_情報":null,"撮影作品4":null,"撮影作品4_情報":null,"FID":16}},{"type":"Feature","id":17,"geometry":{"type":"Point","coordinates":[135.127416,34.64264999999999]},"properties":{"ロケ地ID":42,"エリア":"須磨区","ロケ地名":"須磨海岸","ロケ地名_よみ_":"すまかいがん","郵便番号":"654-0055","住所":"神戸市須磨区須磨浦通1","緯度":34.64265,"経度":135.127416,"撮影作品1":"ホームレス中学生","撮影作品1_情報":"裕（小池徹平さん）が自転車で家出し、神戸の海岸にたどり着くシーン","撮影作品2":"ありがとう","撮影作品2_情報":"妻を亡くした保繁（今福将雄さん）が海に向って歌うシーン","撮影作品3":"ハリヨの夏","撮影作品3_情報":"瑞穂（於保佐代子さん）が母（風吹ジュンさん）らと旅行するシーン","撮影作品4":null,"撮影作品4_情報":null,"FID":17}},{"type":"Feature","id":18,"geometry":{"type":"Point","coordinates":[135.235348,34.72575899999999]},"properties":{"ロケ地ID":44,"エリア":"灘区","ロケ地名":"神戸大学（六甲台キャンパス）","ロケ地名_よみ_":"こうべだいがく（ろっこうだいきゃんぱす）","郵便番号":"657-0013","住所":"神戸市灘区六甲台町2","緯度":34.725759,"経度":135.235348,"撮影作品1":"火垂るの墓","撮影作品1_情報":"清太（吉武怜朗さん）と父（高橋克明さん）が剣道の稽古をするシーン（剣道場にて）","撮影作品2":"僕の彼女はサイボーグ","撮影作品2_情報":"ジロー（小出恵介さん）が通う大学（教室・学食）として登場。彼女（綾瀬はるかさん）がチキンを骨ごと食べるシーンも。","撮影作品3":"神様のパズル","撮影作品3_情報":"基一（市原隼人さん）と沙羅華（谷村美月さん）が通う大学。学校の庭、表のシーンが撮影された。","撮影作品4":null,"撮影作品4_情報":null,"FID":18}},{"type":"Feature","id":19,"geometry":{"type":"Point","coordinates":[135.212066,34.666976]},"properties":{"ロケ地ID":49,"エリア":"中央区","ロケ地名":"神戸商工会議所会館","ロケ地名_よみ_":"こうべしょうこうかいぎしょかいかん","郵便番号":"650-8543","住所":"神戸市中央区港島中町6-1","緯度":34.666976,"経度":135.212066,"撮影作品1":"おばちゃんチップス","撮影作品1_情報":"研究所に家弓（船越英一郎さん）が来訪するシーンを撮影","撮影作品2":null,"撮影作品2_情報":null,"撮影作品3":null,"撮影作品3_情報":null,"撮影作品4":null,"撮影作品4_情報":null,"FID":19}},{"type":"Feature","id":20,"geometry":{"type":"Point","coordinates":[135.052625,34.686669]},"properties":{"ロケ地ID":50,"エリア":"西区","ロケ地名":"神戸市看護大学","ロケ地名_よみ_":"こうべしかんごだいがく","郵便番号":"651-2103","住所":"神戸市西区学園西町3-4","緯度":34.686669,"経度":135.052625,"撮影作品1":"天使の卵","撮影作品1_情報":"歩太（市原隼人さん）と春妃（小西真奈美さん）が語らうシーンを撮影","撮影作品2":"走れ！イチロー","撮影作品2_情報":"市郎（中村雅俊さん）がミャンマーの図書館で電話するシーンを撮影","撮影作品3":null,"撮影作品3_情報":null,"撮影作品4":null,"撮影作品4_情報":null,"FID":20}},{"type":"Feature","id":21,"geometry":{"type":"Point","coordinates":[135.148514,34.64859799999998]},"properties":{"ロケ地ID":51,"エリア":"長田区","ロケ地名":"長田港","ロケ地名_よみ_":"ながたこう","郵便番号":"653-0043","住所":"神戸市長田区駒ヶ林町","緯度":34.648598,"経度":135.148514,"撮影作品1":"ありがとう","撮影作品1_情報":"古市忠夫（赤井秀和さん）がトレーニングをした場所","撮影作品2":null,"撮影作品2_情報":null,"撮影作品3":null,"撮影作品3_情報":null,"撮影作品4":null,"撮影作品4_情報":null,"FID":21}},{"type":"Feature","id":22,"geometry":{"type":"Point","coordinates":[135.214621,34.71092499999998]},"properties":{"ロケ地ID":54,"エリア":"灘区","ロケ地名":"神戸市立王子動物園","ロケ地名_よみ_":"こうべしりつおうじどうぶつえん","郵便番号":"657-0838","住所":"神戸市灘区王子町3-1","緯度":34.710925,"経度":135.214621,"撮影作品1":"きょうのできごと","撮影作品1_情報":"ちよ（池脇千鶴さん）とかわち（松尾敏伸さん）がデートした動物園","撮影作品2":null,"撮影作品2_情報":null,"撮影作品3":null,"撮影作品3_情報":null,"撮影作品4":null,"撮影作品4_情報":null,"FID":22}},{"type":"Feature","id":23,"geometry":{"type":"Point","coordinates":[135.206409,34.734207]},"properties":{"ロケ地ID":55,"エリア":"灘区","ロケ地名":"摩耶山掬星台","ロケ地名_よみ_":"まやさんきくせいだい","郵便番号":"657-0105","住所":"神戸市灘区摩耶山町2-2","緯度":34.734207,"経度":135.206409,"撮影作品1":"首領への道（未掲出）","撮影作品1_情報":"なし","撮影作品2":null,"撮影作品2_情報":null,"撮影作品3":null,"撮影作品3_情報":null,"撮影作品4":null,"撮影作品4_情報":null,"FID":23}},{"type":"Feature","id":24,"geometry":{"type":"Point","coordinates":[135.188484,34.682285]},"properties":{"ロケ地ID":56,"エリア":"中央区","ロケ地名":"中突堤・メリケンパーク","ロケ地名_よみ_":"なかとってい・めりけんぱーく","郵便番号":"650-0042","住所":"神戸市中央区波止場町","緯度":34.682285,"経度":135.188484,"撮影作品1":"走れ！イチロー","撮影作品1_情報":"奥手川伊知郎（石原良純さん）と睦美（木村佳乃さん）のデートシーンを撮影","撮影作品2":"GAIJIN 2","撮影作品2_情報":null,"撮影作品3":null,"撮影作品3_情報":null,"撮影作品4":null,"撮影作品4_情報":null,"FID":24}},{"type":"Feature","id":25,"geometry":{"type":"Point","coordinates":[135.033345,34.63131899999998]},"properties":{"ロケ地ID":57,"エリア":"垂水区","ロケ地名":"明石海峡大橋","ロケ地名_よみ_":"あかしかいきょうおおはし","郵便番号":"655-0047","住所":"神戸市垂水区東舞子町4-114","緯度":34.631319,"経度":135.033345,"撮影作品1":"走れ！イチロー","撮影作品1_情報":"リュウ（松田龍平さん）とこよみ（笹岡莉紗さん）が舞子海上プロムナードを二人で歩くシーンを撮影","撮影作品2":"バタフライ","撮影作品2_情報":null,"撮影作品3":null,"撮影作品3_情報":null,"撮影作品4":null,"撮影作品4_情報":null,"FID":25}},{"type":"Feature","id":26,"geometry":{"type":"Point","coordinates":[135.192368,34.68718899999997]},"properties":{"ロケ地ID":58,"エリア":"中央区","ロケ地名":"旧神戸居留地十五番館","ロケ地名_よみ_":"きゅうこうべきょりゅうちじゅうごばんかん","郵便番号":"650-0035","住所":"神戸市中央区浪花町15","緯度":34.687189,"経度":135.192368,"撮影作品1":"少年H","撮影作品1_情報":"少年Hと父親・盛夫がフランス料理屋のオーナーシェフを訪ねるシーン","撮影作品2":"僕の彼女はサイボーグ","撮影作品2_情報":"彼女（綾瀬はるかさん）とジロー（小出恵介さん）が食事をするレストラン（店内はセット）","撮影作品3":null,"撮影作品3_情報":null,"撮影作品4":null,"撮影作品4_情報":null,"FID":26}},{"type":"Feature","id":27,"geometry":{"type":"Point","coordinates":[135.184751,34.66753199999998]},"properties":{"ロケ地ID":59,"エリア":"兵庫区","ロケ地名":"兵庫突堤","ロケ地名_よみ_":"ひょうごとってい","郵便番号":"652-0845","住所":"神戸市兵庫区築地町","緯度":34.667532,"経度":135.184751,"撮影作品1":"夏の終り","撮影作品1_情報":"知子（満島ひかりさん）が外国から戻る港で、涼太（綾野剛さん）が出迎えるシーンを撮影","撮影作品2":null,"撮影作品2_情報":null,"撮影作品3":null,"撮影作品3_情報":null,"撮影作品4":null,"撮影作品4_情報":null,"FID":27}},{"type":"Feature","id":28,"geometry":{"type":"Point","coordinates":[135.184571,34.69736499999999]},"properties":{"ロケ地ID":66,"エリア":"中央区","ロケ地名":"海外移住と文化の交流センター","ロケ地名_よみ_":"かいがいいじゅうとぶんかのこうりゅうせんたー","郵便番号":"650-0003","住所":"神戸市中央区山本通3-19-8","緯度":34.697365,"経度":135.184571,"撮影作品1":"僕の彼女はサイボーグ","撮影作品1_情報":"ジロー（小出恵介さん）が家の外（屋上）から空き缶を投げるシーン","撮影作品2":"走れ！イチロー","撮影作品2_情報":"睦美（木村佳乃さん）と奥手川（石原良純さん）が集合アトリエで会話するシーンを撮影","撮影作品3":"Killers","撮影作品3_情報":"動・響・光","撮影作品4":null,"撮影作品4_情報":null,"FID":28}},{"type":"Feature","id":29,"geometry":{"type":"Point","coordinates":[135.158325,34.67326699999999]},"properties":{"ロケ地ID":70,"エリア":"兵庫区","ロケ地名":"神戸市営地下鉄上沢駅","ロケ地名_よみ_":"こうべしえいちかてつかみさわえき","郵便番号":"652-0047","住所":"神戸市兵庫区下沢通8","緯度":34.673267,"経度":135.158325,"撮影作品1":"GO","撮影作品1_情報":"杉原（窪塚洋介さん）が迫り来る地下鉄を背に線路を走った","撮影作品2":null,"撮影作品2_情報":null,"撮影作品3":null,"撮影作品3_情報":null,"撮影作品4":null,"撮影作品4_情報":null,"FID":29}},{"type":"Feature","id":30,"geometry":{"type":"Point","coordinates":[135.198178,34.68509499999999]},"properties":{"ロケ地ID":74,"エリア":"中央区","ロケ地名":"神戸税関","ロケ地名_よみ_":"こうべぜいかん","郵便番号":"650-0041","住所":"神戸市中央区新港町１２?１","緯度":34.685095,"経度":135.198178,"撮影作品1":"ALWAYS三丁目の夕日64","撮影作品1_情報":"昭和64年の出版社の外観として","撮影作品2":null,"撮影作品2_情報":null,"撮影作品3":null,"撮影作品3_情報":null,"撮影作品4":null,"撮影作品4_情報":null,"FID":30}},{"type":"Feature","id":31,"geometry":{"type":"Point","coordinates":[135.180277,34.678927999999985]},"properties":{"ロケ地ID":75,"エリア":"中央区","ロケ地名":"ハーバーランドセンタービル","ロケ地名_よみ_":"はーばーらんどせんたーびる","郵便番号":"650-0044","住所":"神戸市中央区東川崎町1-3","緯度":34.678928,"経度":135.180277,"撮影作品1":"DOG×POLICE「純白の絆」","撮影作品1_情報":"警備犬を扱う警察官（市原隼人さん、戸田恵梨香さん）らが大活躍するシーンを撮影","撮影作品2":null,"撮影作品2_情報":null,"撮影作品3":null,"撮影作品3_情報":null,"撮影作品4":null,"撮影作品4_情報":null,"FID":31}},{"type":"Feature","id":32,"geometry":{"type":"Point","coordinates":[135.190534,34.688744]},"properties":{"ロケ地ID":77,"エリア":"中央区","ロケ地名":"大丸神戸店","ロケ地名_よみ_":"だいまるこうべてん","郵便番号":"650-0037","住所":"神戸市中央区明石町40","緯度":34.688744,"経度":135.190534,"撮影作品1":"僕の彼女はサイボーグ","撮影作品1_情報":"彼女（綾瀬はるかさん）が洋服を物色するシーンを撮影","撮影作品2":null,"撮影作品2_情報":null,"撮影作品3":null,"撮影作品3_情報":null,"撮影作品4":null,"撮影作品4_情報":null,"FID":32}},{"type":"Feature","id":33,"geometry":{"type":"Point","coordinates":[135.194557,34.691133]},"properties":{"ロケ地ID":78,"エリア":"中央区","ロケ地名":"三宮中央通り","ロケ地名_よみ_":"さんのみやちゅうおうどおり","郵便番号":"650-0021","住所":"神戸市中央区三宮町1","緯度":34.691133,"経度":135.194557,"撮影作品1":"阪急電車","撮影作品1_情報":"翔子（中谷美紀さん）がビジネス街の人波の中、たたずんだ場所","撮影作品2":null,"撮影作品2_情報":null,"撮影作品3":null,"撮影作品3_情報":null,"撮影作品4":null,"撮影作品4_情報":null,"FID":33}},{"type":"Feature","id":34,"geometry":{"type":"Point","coordinates":[135.194407,34.69145099999999]},"properties":{"ロケ地ID":79,"エリア":"中央区","ロケ地名":"グリル十字屋","ロケ地名_よみ_":"ぐりるじゅうじや","郵便番号":"650-0033","住所":"神戸市中央区江戸町96","緯度":34.691451,"経度":135.194407,"撮影作品1":"マイ・バック・ページ","撮影作品1_情報":"沢田（妻夫木聡さん）が、モデルの倉田眞子（忽那汐里さん）とデートしたレストラン","撮影作品2":null,"撮影作品2_情報":null,"撮影作品3":null,"撮影作品3_情報":null,"撮影作品4":null,"撮影作品4_情報":null,"FID":34}},{"type":"Feature","id":35,"geometry":{"type":"Point","coordinates":[135.184836,34.68255799999998]},"properties":{"ロケ地ID":80,"エリア":"中央区","ロケ地名":"中突堤中央ターミナル（かもめりあ）","ロケ地名_よみ_":"なかとっていちゅうおうたーみなる（かもめりあ）","郵便番号":"650-0042","住所":"神戸市中央区波止場町6","緯度":34.682558,"経度":135.184836,"撮影作品1":"ふたたび　SWING ME AGAIN","撮影作品1_情報":"神戸に着いた貴島（財津一郎さん）たちを、孫（鈴木亮平さん）が迎えにくるシーンを撮影","撮影作品2":null,"撮影作品2_情報":null,"撮影作品3":null,"撮影作品3_情報":null,"撮影作品4":null,"撮影作品4_情報":null,"FID":35}},{"type":"Feature","id":36,"geometry":{"type":"Point","coordinates":[135.174012,34.66966999999998]},"properties":{"ロケ地ID":82,"エリア":"兵庫区","ロケ地名":"岡方会館","ロケ地名_よみ_":"おかがたかいかん","郵便番号":"652-0834","住所":"神戸市兵庫区本町2-3","緯度":34.66967,"経度":135.174012,"撮影作品1":"新宿インシデント","撮影作品1_情報":"鉄頭（ジャッキー・チェンさん）の会社「東華商事」のシーンを撮影。アクションも。","撮影作品2":null,"撮影作品2_情報":null,"撮影作品3":null,"撮影作品3_情報":null,"撮影作品4":null,"撮影作品4_情報":null,"FID":36}},{"type":"Feature","id":37,"geometry":{"type":"Point","coordinates":[135.182436,34.67747]},"properties":{"ロケ地ID":85,"エリア":"中央区","ロケ地名":"はねっこ広場","ロケ地名_よみ_":"はねっこひろば","郵便番号":"650-0044","住所":"神戸市中央区東川崎町1-5","緯度":34.67747,"経度":135.182436,"撮影作品1":"Sweet Rain 死神の精度","撮影作品1_情報":"千葉（金城武さん）と一恵（小西真奈美さん）がチンピラから逃げ延び、コイントスをするシーンを撮影","撮影作品2":null,"撮影作品2_情報":null,"撮影作品3":null,"撮影作品3_情報":null,"撮影作品4":null,"撮影作品4_情報":null,"FID":37}},{"type":"Feature","id":38,"geometry":{"type":"Point","coordinates":[135.188476,34.68808099999999]},"properties":{"ロケ地ID":86,"エリア":"中央区","ロケ地名":"南京町","ロケ地名_よみ_":"なんきんまち","郵便番号":"650-0023","住所":"神戸市中央区栄町通","緯度":34.688081,"経度":135.188476,"撮影作品1":"新宿インシデント","撮影作品1_情報":"鉄頭（ジャッキー・チェンさん）がチンピラを撃退するシーン","撮影作品2":"僕の彼女はサイボーグ","撮影作品2_情報":"彼女（綾瀬はるかさん）とジロー（小出恵介さん）が町を駆け抜ける！","撮影作品3":null,"撮影作品3_情報":null,"撮影作品4":null,"撮影作品4_情報":null,"FID":38}},{"type":"Feature","id":39,"geometry":{"type":"Point","coordinates":[135.214786,34.66457600000001]},"properties":{"ロケ地ID":89,"エリア":"中央区","ロケ地名":"神戸ポートピアホテル","ロケ地名_よみ_":"こうべぽーとぴあほてる","郵便番号":"650-0046","住所":"神戸市中央区港島中町6-10-1","緯度":34.664576,"経度":135.214786,"撮影作品1":"アウトレイジ","撮影作品1_情報":"本館2Fのバーで、グバナン大使がパーティを開催するシーン","撮影作品2":"新宿インシデント","撮影作品2_情報":"鉄頭（ジャッキー・チェンさん）がホテルの玄関で暗殺を決行","撮影作品3":"ハリヨの夏","撮影作品3_情報":"瑞穂（於保佐代子さん）がチャーリー（キャメロン・スティールさん）とダンスをするシーンを撮影","撮影作品4":null,"撮影作品4_情報":null,"FID":39}},{"type":"Feature","id":40,"geometry":{"type":"Point","coordinates":[135.073471,34.680934999999984]},"properties":{"ロケ地ID":96,"エリア":"須磨区","ロケ地名":"ほっともっとフィールド神戸","ロケ地名_よみ_":"ほっともっとふぃーるどこうべ","郵便番号":"654-0163","住所":"神戸市須磨区緑台","緯度":34.680935,"経度":135.073471,"撮影作品1":"走れ！イチロー","撮影作品1_情報":"旧グリーンスタジアムには、４人の「イチロー」が登場","撮影作品2":null,"撮影作品2_情報":null,"撮影作品3":null,"撮影作品3_情報":null,"撮影作品4":null,"撮影作品4_情報":null,"FID":40}},{"type":"Feature","id":41,"geometry":{"type":"Point","coordinates":[135.203912,34.67027599999999]},"properties":{"ロケ地ID":99,"エリア":"中央区","ロケ地名":"神戸学院大学ポートアイランドキャンパス","ロケ地名_よみ_":"こうべがくいんだいがくぽーとあいらんどきゃんぱす","郵便番号":"650-0045","住所":"神戸市中央区港島1-1-3","緯度":34.670276,"経度":135.203912,"撮影作品1":"シャニダールの花","撮影作品1_情報":"シャニダール研究所施設のシーンを撮影","撮影作品2":null,"撮影作品2_情報":null,"撮影作品3":null,"撮影作品3_情報":null,"撮影作品4":null,"撮影作品4_情報":null,"FID":41}},{"type":"Feature","id":42,"geometry":{"type":"Point","coordinates":[135.019999,34.71925199999999]},"properties":{"ロケ地ID":101,"エリア":"西区","ロケ地名":"プレンティ","ロケ地名_よみ_":"ぷれんてぃ","郵便番号":"651-2273","住所":"神戸市西区糀台5-2-3","緯度":34.719252,"経度":135.019999,"撮影作品1":"DOG×POLICE「純白の絆」","撮影作品1_情報":"警察官（市原隼人さん、戸田恵梨香さん）らが、とある場所を歩くシーンを撮影","撮影作品2":null,"撮影作品2_情報":null,"撮影作品3":null,"撮影作品3_情報":null,"撮影作品4":null,"撮影作品4_情報":null,"FID":42}},{"type":"Feature","id":43,"geometry":{"type":"Point","coordinates":[135.188382,34.68032599999999]},"properties":{"ロケ地ID":102,"エリア":"中央区","ロケ地名":"神戸メリケンパークオリエンタルホテル","ロケ地名_よみ_":"こうべめりけんぱーくおりえんたるほてる","郵便番号":"650-0042","住所":"神戸市中央区波止場町5-6","緯度":34.680326,"経度":135.188382,"撮影作品1":"走れ！イチロー","撮影作品1_情報":"奥手川（石原良純さん）が缶詰になり執筆しているスイートルームのシーンを撮影","撮影作品2":"メモリーズ・コーナー","撮影作品2_情報":null,"撮影作品3":null,"撮影作品3_情報":null,"撮影作品4":null,"撮影作品4_情報":null,"FID":43}},{"type":"Feature","id":44,"geometry":{"type":"Point","coordinates":[135.047357,34.625686]},"properties":{"ロケ地ID":103,"エリア":"垂水区","ロケ地名":"三井アウトレットパーク　マリンピア神戸","ロケ地名_よみ_":"みついあうとれっとぱーく　まりんぴあこうべ","郵便番号":"655-0036","住所":"神戸市垂水区海岸通12-2","緯度":34.625686,"経度":135.047357,"撮影作品1":"ミロクローゼ","撮影作品1_情報":"子ども時代のオブレネリ・ブレネリギャー（下地幸多さん）が、ミロクローゼ（マイコさん）とデート","撮影作品2":null,"撮影作品2_情報":null,"撮影作品3":null,"撮影作品3_情報":null,"撮影作品4":null,"撮影作品4_情報":null,"FID":44}},{"type":"Feature","id":45,"geometry":{"type":"Point","coordinates":[135.204436,34.676745000000004]},"properties":{"ロケ地ID":104,"エリア":"中央区","ロケ地名":"ポートアイランド北公園","ロケ地名_よみ_":"ぽーとあいらんどきたこうえん","郵便番号":"650-0045","住所":"神戸市中央区港島2","緯度":34.676745,"経度":135.204436,"撮影作品1":"ウルトラマンメビウス＆ウルトラ兄弟","撮影作品1_情報":"悩めるタカト（田中碧海さん）をミライが励ます名シーン","撮影作品2":"阪急電車","撮影作品2_情報":null,"撮影作品3":null,"撮影作品3_情報":null,"撮影作品4":null,"撮影作品4_情報":null,"FID":45}},{"type":"Feature","id":46,"geometry":{"type":"Point","coordinates":[135.189192,34.689184000000004]},"properties":{"ロケ地ID":105,"エリア":"中央区","ロケ地名":"エビアンコーヒー","ロケ地名_よみ_":"えびあんこーひー","郵便番号":"650-0022","住所":"神戸市中央区元町通1-7-2-1F","緯度":34.689184,"経度":135.189192,"撮影作品1":"マイ・バック・ページ","撮影作品1_情報":"沢田（妻夫木聡さん）が、先輩記者（古舘寛治さん）と話し合った喫茶店","撮影作品2":null,"撮影作品2_情報":null,"撮影作品3":null,"撮影作品3_情報":null,"撮影作品4":null,"撮影作品4_情報":null,"FID":46}},{"type":"Feature","id":47,"geometry":{"type":"Point","coordinates":[135.189739,34.68473299999999]},"properties":{"ロケ地ID":108,"エリア":"中央区","ロケ地名":"カフェフィッシュ","ロケ地名_よみ_":"かふぇふぃっしゅ","郵便番号":"650-0042","住所":"神戸市中央区波止場町2-8","緯度":34.684733,"経度":135.189739,"撮影作品1":"阪急電車","撮影作品1_情報":"ミサ（戸田恵梨香さん）が、マユミ（相武紗季さん）同席で彼氏と話し合ったカフェ","撮影作品2":"悲しいボーイフレンド（未掲出）","撮影作品2_情報":null,"撮影作品3":null,"撮影作品3_情報":null,"撮影作品4":null,"撮影作品4_情報":null,"FID":47}},{"type":"Feature","id":48,"geometry":{"type":"Point","coordinates":[135.180706,34.69716499999998]},"properties":{"ロケ地ID":110,"エリア":"中央区","ロケ地名":"ビーナスブリッジ","ロケ地名_よみ_":"びーなすぶりっじ","郵便番号":"650-0006","住所":"神戸市中央区諏訪山町1","緯度":34.697165,"経度":135.180706,"撮影作品1":"初雪の恋 ～ヴァージン・スノー～（未掲出）","撮影作品1_情報":"なし","撮影作品2":null,"撮影作品2_情報":null,"撮影作品3":null,"撮影作品3_情報":null,"撮影作品4":null,"撮影作品4_情報":null,"FID":48}},{"type":"Feature","id":49,"geometry":{"type":"Point","coordinates":[135.038801,34.63130999999999]},"properties":{"ロケ地ID":111,"エリア":"垂水区","ロケ地名":"シーサイドホテル舞子ビラ神戸","ロケ地名_よみ_":"しーさいどほてるまいこびら","郵便番号":"655-0047","住所":"神戸市垂水区東舞子町18-11","緯度":34.63131,"経度":135.038801,"撮影作品1":"ウルトラマンメビウス＆ウルトラ兄弟","撮影作品1_情報":"ウルトラマンＡの北斗星司（高峰圭二さん）はレストランのシェフだった。","撮影作品2":null,"撮影作品2_情報":null,"撮影作品3":null,"撮影作品3_情報":null,"撮影作品4":null,"撮影作品4_情報":null,"FID":49}},{"type":"Feature","id":50,"geometry":{"type":"Point","coordinates":[135.16914,34.68861899999999]},"properties":{"ロケ地ID":118,"エリア":"兵庫区","ロケ地名":"神戸昇天教会","ロケ地名_よみ_":"こうべしょうてんきょうかい","郵便番号":"652-0015","住所":"神戸市兵庫区下祇園町39-7","緯度":34.688619,"経度":135.16914,"撮影作品1":"ふたたび　SWING ME AGAIN","撮影作品1_情報":"築約100年の木造教会。若かりし貴島（財津一郎さん）が婚約をした思い出の教会でのシーンを撮影","撮影作品2":null,"撮影作品2_情報":null,"撮影作品3":null,"撮影作品3_情報":null,"撮影作品4":null,"撮影作品4_情報":null,"FID":50}},{"type":"Feature","id":51,"geometry":{"type":"Point","coordinates":[135.226083,34.66049899999999]},"properties":{"ロケ地ID":120,"エリア":"中央区","ロケ地名":"神戸インキュベーションオフィス","ロケ地名_よみ_":"こうべいんきゅべーしょんおふぃす","郵便番号":"650-0045","住所":"神戸市中央区港島9-1","緯度":34.660499,"経度":135.226083,"撮影作品1":"悲しいボーイフレンド","撮影作品1_情報":"岩津（寺脇康文さん）が香奈（寺島咲さん）に高速バスに無理やり乗せられるシーン","撮影作品2":"ありがとう","撮影作品2_情報":"忠雄（赤井英和さん）がプロテスト会場に出発するバスに乗り込むシーン","撮影作品3":null,"撮影作品3_情報":null,"撮影作品4":null,"撮影作品4_情報":null,"FID":51}},{"type":"Feature","id":52,"geometry":{"type":"Point","coordinates":[135.179587,34.68389499999998]},"properties":{"ロケ地ID":121,"エリア":"中央区","ロケ地名":"神戸高速鉄道西元町駅","ロケ地名_よみ_":"こうべこうそくてつどうにしもとまちえき","郵便番号":"650-0022","住所":"神戸市中央区元町通6-8-13","緯度":34.683895,"経度":135.179587,"撮影作品1":"Sweet Rain 死神の精度","撮影作品1_情報":"千葉（金城武さん）と一恵（小西真奈美さん）の出会いのシーンや千葉が黒犬と登場するシーンを撮影","撮影作品2":null,"撮影作品2_情報":null,"撮影作品3":null,"撮影作品3_情報":null,"撮影作品4":null,"撮影作品4_情報":null,"FID":52}},{"type":"Feature","id":53,"geometry":{"type":"Point","coordinates":[135.159465,34.68113499999998]},"properties":{"ロケ地ID":122,"エリア":"兵庫区","ロケ地名":"湊川隧道（不定期公開）","ロケ地名_よみ_":"みなとがわずいどう","郵便番号":"652-0041","住所":"神戸市兵庫区湊川町9-1","緯度":34.681135,"経度":135.159465,"撮影作品1":"新宿インシデント","撮影作品1_情報":"鉄頭（ジャッキー・チェンさん）らが、どぶさらいをしているシーン。","撮影作品2":"クローズZERO","撮影作品2_情報":"源治（小栗旬さん）とルカ（黒木メイサさん）が町はずれに逃げ着くシーン","撮影作品3":null,"撮影作品3_情報":null,"撮影作品4":null,"撮影作品4_情報":null,"FID":53}},{"type":"Feature","id":54,"geometry":{"type":"Point","coordinates":[135.196391,34.687791999999995]},"properties":{"ロケ地ID":123,"エリア":"中央区","ロケ地名":"東遊園地","ロケ地名_よみ_":"ひがしゆうえんち","郵便番号":"650-0001","住所":"神戸市中央区加納町6-1","緯度":34.687792,"経度":135.196391,"撮影作品1":"僕の彼女はサイボーグ","撮影作品1_情報":"彼女（綾瀬はるかさん）がジロー（小出恵介さん）のデート相手を噴水に投げ飛ばすシーンを撮影","撮影作品2":null,"撮影作品2_情報":null,"撮影作品3":null,"撮影作品3_情報":null,"撮影作品4":null,"撮影作品4_情報":null,"FID":54}},{"type":"Feature","id":55,"geometry":{"type":"Point","coordinates":[135.191172,34.71711599999999]},"properties":{"ロケ地ID":124,"エリア":"中央区","ロケ地名":"神戸布引ハーブ園／ロープウェイ","ロケ地名_よみ_":"こうべぬのびきはーぶえん／ろーぷうぇい","郵便番号":"651-0058","住所":"神戸市中央区葺合町字山郡","緯度":34.717116,"経度":135.191172,"撮影作品1":"メモリーズ・コーナー","撮影作品1_情報":"アダ（デボラ・フランソワさん）と、石田（阿部寛さん）が語り合うシーン","撮影作品2":"ウルトラマンメビウス＆ウルトラ兄弟","撮影作品2_情報":"ウルトラ兄弟の４名がGUYSガンウィンガーを見送った場所","撮影作品3":null,"撮影作品3_情報":null,"撮影作品4":null,"撮影作品4_情報":null,"FID":55}},{"type":"Feature","id":56,"geometry":{"type":"Point","coordinates":[135.199572,34.693043]},"properties":{"ロケ地ID":126,"エリア":"中央区","ロケ地名":"レアル プリンセサ・リカルディーナ 磯上邸","ロケ地名_よみ_":"れあるぷりんせさ・りかるでぃーないそがみてい","郵便番号":"651-0086","住所":"神戸市中央区磯上通4-3-14","緯度":34.693043,"経度":135.199572,"撮影作品1":"阪急電車","撮影作品1_情報":"康江（南果歩さん）らが訪れた、マダム御用達カフェ","撮影作品2":null,"撮影作品2_情報":null,"撮影作品3":null,"撮影作品3_情報":null,"撮影作品4":null,"撮影作品4_情報":null,"FID":56}},{"type":"Feature","id":57,"geometry":{"type":"Point","coordinates":[135.21271,34.666323]},"properties":{"ロケ地ID":127,"エリア":"中央区","ロケ地名":"神戸国際交流会館","ロケ地名_よみ_":"こうべこくさいこうりゅうかいかん","郵便番号":"650-0046","住所":"神戸市中央区港島中町6-9-1","緯度":34.666323,"経度":135.21271,"撮影作品1":"DOG×POLICE「純白の絆」","撮影作品1_情報":"講演会開催直前に爆破予告が。刑事（市原隼人さん）らが館内を捜索","撮影作品2":null,"撮影作品2_情報":null,"撮影作品3":null,"撮影作品3_情報":null,"撮影作品4":null,"撮影作品4_情報":null,"FID":57}},{"type":"Feature","id":58,"geometry":{"type":"Point","coordinates":[135.17739,34.66933300000001]},"properties":{"ロケ地ID":129,"エリア":"兵庫区","ロケ地名":"加藤陸送ビル","ロケ地名_よみ_":"かとうりくうんびる","郵便番号":"652-0833","住所":"神戸市兵庫区島上町1-5","緯度":34.669333,"経度":135.17739,"撮影作品1":"新宿インシデント","撮影作品1_情報":"殺し屋集団がビルから出陣するシーンを撮影","撮影作品2":null,"撮影作品2_情報":null,"撮影作品3":null,"撮影作品3_情報":null,"撮影作品4":null,"撮影作品4_情報":null,"FID":58}},{"type":"Feature","id":59,"geometry":{"type":"Point","coordinates":[135.193562,34.691808]},"properties":{"ロケ地ID":130,"エリア":"中央区","ロケ地名":"三宮センター街","ロケ地名_よみ_":"さんのみやせんたーがい","郵便番号":"650-0021","住所":"神戸市中央区三宮町1-6","緯度":34.691808,"経度":135.193562,"撮影作品1":"新宿インシデント","撮影作品1_情報":"暴力団の抗争シーンがセンタープラザの前で。","撮影作品2":null,"撮影作品2_情報":null,"撮影作品3":null,"撮影作品3_情報":null,"撮影作品4":null,"撮影作品4_情報":null,"FID":59}},{"type":"Feature","id":60,"geometry":{"type":"Point","coordinates":[135.189208,34.69087899999999]},"properties":{"ロケ地ID":131,"エリア":"中央区","ロケ地名":"阪急西口本通2・3丁目","ロケ地名_よみ_":"はんきゅうにしぐちほんどおり2・3ちょうめ","郵便番号":"650-0012","住所":"神戸市中央区北長狭通3-31","緯度":34.690879,"経度":135.189208,"撮影作品1":"新宿インシデント","撮影作品1_情報":"鉄頭（ジャッキー・チェンさん）が追手から逃げるシーンを撮影","撮影作品2":null,"撮影作品2_情報":null,"撮影作品3":null,"撮影作品3_情報":null,"撮影作品4":null,"撮影作品4_情報":null,"FID":60}},{"type":"Feature","id":61,"geometry":{"type":"Point","coordinates":[135.185502,34.688935999999984]},"properties":{"ロケ地ID":132,"エリア":"中央区","ロケ地名":"元町高架下商店街","ロケ地名_よみ_":"もとまちこうかしたしょうてんがい","郵便番号":"650-0014","住所":"神戸市中央区元町高架通","緯度":34.688936,"経度":135.185502,"撮影作品1":"Sweet Rain 死神の精度","撮影作品1_情報":"一恵（小西真奈美さん）がストーカー？から逃げるシーンを撮影","撮影作品2":"走れ！イチロー","撮影作品2_情報":"リュウ（松田龍平さん）が市郎（中村雅俊さん）をバイクに乗せ、店を出るシーン","撮影作品3":null,"撮影作品3_情報":null,"撮影作品4":null,"撮影作品4_情報":null,"FID":61}},{"type":"Feature","id":62,"geometry":{"type":"Point","coordinates":[135.174856,34.67653399999998]},"properties":{"ロケ地ID":133,"エリア":"兵庫区","ロケ地名":"新開地劇場","ロケ地名_よみ_":"しんかいちげきじょう","郵便番号":"652-0811","住所":"神戸市兵庫区新開地5-2-3","緯度":34.676534,"経度":135.174856,"撮影作品1":"走れ！イチロー","撮影作品1_情報":"真理子（大谷みつほさん）に会いにリュウ（松田龍平さん）がやって来るシーンを撮影","撮影作品2":null,"撮影作品2_情報":null,"撮影作品3":null,"撮影作品3_情報":null,"撮影作品4":null,"撮影作品4_情報":null,"FID":62}},{"type":"Feature","id":63,"geometry":{"type":"Point","coordinates":[135.201981,34.66773399999999]},"properties":{"ロケ地ID":134,"エリア":"中央区","ロケ地名":"しおさい公園","ロケ地名_よみ_":"しおさいこうえん","郵便番号":"650-0045","住所":"神戸市中央区港島1","緯度":34.667734,"経度":135.201981,"撮影作品1":"ウルトラマンメビウス＆ウルトラ兄弟","撮影作品1_情報":"ウルトラ兄弟（黒部進さんら）４人が集結。岸壁を並んで歩くシーンを撮影","撮影作品2":"Returner","撮影作品2_情報":"冒頭、宮本（金城武さん）と溝口（岸谷五郎さん）の船上での対決シーンを撮影","撮影作品3":null,"撮影作品3_情報":null,"撮影作品4":null,"撮影作品4_情報":null,"FID":63}},{"type":"Feature","id":64,"geometry":{"type":"Point","coordinates":[135.184957,34.680254999999995]},"properties":{"ロケ地ID":136,"エリア":"中央区","ロケ地名":"コンチェルト","ロケ地名_よみ_":"こんちぇると","郵便番号":"650-0044","住所":"神戸市中央区東川崎町1-6-1","緯度":34.680255,"経度":135.184957,"撮影作品1":"ウルトラマンメビウス＆ウルトラ兄弟","撮影作品1_情報":"ウルトラ兄弟がミライ（五十嵐隼士さん）を励ますシーンを撮影","撮影作品2":"走れ！イチロー","撮影作品2_情報":"奥手川（石原良純さん）と睦美（木村佳乃さん）がランチクルーズで食事をするシーンを撮影","撮影作品3":null,"撮影作品3_情報":null,"撮影作品4":null,"撮影作品4_情報":null,"FID":64}},{"type":"Feature","id":65,"geometry":{"type":"Point","coordinates":[135.196885,34.687088]},"properties":{"ロケ地ID":137,"エリア":"中央区","ロケ地名":"レストランヴィラブランシュ","ロケ地名_よみ_":"れすとらん?ぃらぶらんしゅ","郵便番号":"650-0001","住所":"神戸市中央区加納町6-4-1","緯度":34.687088,"経度":135.196885,"撮影作品1":"Sweet Rain 死神の精度","撮影作品1_情報":"千葉（金城武さん）と一恵（小西真奈美さん）がレストランで食事をするシーンを撮影","撮影作品2":null,"撮影作品2_情報":null,"撮影作品3":null,"撮影作品3_情報":null,"撮影作品4":null,"撮影作品4_情報":null,"FID":65}},{"type":"Feature","id":66,"geometry":{"type":"Point","coordinates":[135.190845,34.689465999999996]},"properties":{"ロケ地ID":138,"エリア":"中央区","ロケ地名":"カミネトアロード店","ロケ地名_よみ_":"かみねとあろーどてん","郵便番号":"650-0021","住所":"神戸市中央区三宮町3-1-22","緯度":34.689466,"経度":135.190845,"撮影作品1":"僕の彼女はサイボーグ","撮影作品1_情報":"作品冒頭でジロー（小出恵介さん）が時計を眺めるシーンを撮影","撮影作品2":null,"撮影作品2_情報":null,"撮影作品3":null,"撮影作品3_情報":null,"撮影作品4":null,"撮影作品4_情報":null,"FID":66}},{"type":"Feature","id":67,"geometry":{"type":"Point","coordinates":[135.193071,34.69102699999999]},"properties":{"ロケ地ID":139,"エリア":"中央区","ロケ地名":"クレフィ三宮","ロケ地名_よみ_":"くれふぃさんのみや","郵便番号":"650-0021","住所":"神戸市中央区三宮町1-4-3","緯度":34.691027,"経度":135.193071,"撮影作品1":"僕の彼女はサイボーグ","撮影作品1_情報":"彼女（綾瀬はるかさん）がケーキを物色するシーンを撮影","撮影作品2":null,"撮影作品2_情報":null,"撮影作品3":null,"撮影作品3_情報":null,"撮影作品4":null,"撮影作品4_情報":null,"FID":67}},{"type":"Feature","id":68,"geometry":{"type":"Point","coordinates":[135.216712,34.661431]},"properties":{"ロケ地ID":140,"エリア":"中央区","ロケ地名":"ポートアイランド中央緑地","ロケ地名_よみ_":"ぽーとあいらんどちゅうおうりょくち","郵便番号":"650-0047","住所":"神戸市中央区港島南町1","緯度":34.661431,"経度":135.216712,"撮影作品1":"ウルトラマンメビウス＆ウルトラ兄弟","撮影作品1_情報":"瓦礫からミライ（五十嵐隼士さん）が抜け出すシーンを撮影","撮影作品2":null,"撮影作品2_情報":null,"撮影作品3":null,"撮影作品3_情報":null,"撮影作品4":null,"撮影作品4_情報":null,"FID":68}},{"type":"Feature","id":69,"geometry":{"type":"Point","coordinates":[135.248397,34.796650999999976]},"properties":{"ロケ地ID":141,"エリア":"北区","ロケ地名":"湯本坂","ロケ地名_よみ_":"ゆもとざか","郵便番号":"651-1401","住所":"神戸市北区有馬町","緯度":34.796651,"経度":135.248397,"撮影作品1":"クリアネス","撮影作品1_情報":"さくら（杉野希妃さん）とレオ（細田よしひこさん）が有馬温泉に旅行に来て、散策するシーンを撮影","撮影作品2":null,"撮影作品2_情報":null,"撮影作品3":null,"撮影作品3_情報":null,"撮影作品4":null,"撮影作品4_情報":null,"FID":69}},{"type":"Feature","id":70,"geometry":{"type":"Point","coordinates":[135.247308,34.79672]},"properties":{"ロケ地ID":142,"エリア":"北区","ロケ地名":"陶泉御所坊","ロケ地名_よみ_":"とうせんごしょぼう","郵便番号":"651-1401","住所":"神戸市北区有馬町858","緯度":34.79672,"経度":135.247308,"撮影作品1":"クリアネス","撮影作品1_情報":"さくら（杉野希妃さん）とレオ（細田よしひこさん）が温泉旅館に泊まるシーンを撮影","撮影作品2":null,"撮影作品2_情報":null,"撮影作品3":null,"撮影作品3_情報":null,"撮影作品4":null,"撮影作品4_情報":null,"FID":70}},{"type":"Feature","id":71,"geometry":{"type":"Point","coordinates":[135.146076,34.651900999999995]},"properties":{"ロケ地ID":143,"エリア":"長田区","ロケ地名":"神戸市立地域人材支援センター","ロケ地名_よみ_":"こうべしりつちいきじんざいしえんせんたー","郵便番号":"653-0042","住所":"神戸市長田区二葉町7-1-18","緯度":34.651901,"経度":135.146076,"撮影作品1":"ふたたび　SWING ME AGAIN","撮影作品1_情報":"貴島（財津一郎さん）が、息子夫婦（陣内孝則さん、古手川祐子さん）と和解する楽屋でのシーンを撮影","撮影作品2":null,"撮影作品2_情報":null,"撮影作品3":null,"撮影作品3_情報":null,"撮影作品4":null,"撮影作品4_情報":null,"FID":71}},{"type":"Feature","id":72,"geometry":{"type":"Point","coordinates":[135.149547,34.653726]},"properties":{"ロケ地ID":144,"エリア":"長田区","ロケ地名":"二葉34商店街","ロケ地名_よみ_":"ふたば34しょうてんがい","郵便番号":"653-0042","住所":"神戸市長田区二葉町3-6-5","緯度":34.653726,"経度":135.149547,"撮影作品1":"クローズZERO","撮影作品1_情報":"源治（小栗旬さん）らG・P・Sが雨の中最後の決戦に向かうシーン","撮影作品2":null,"撮影作品2_情報":null,"撮影作品3":null,"撮影作品3_情報":null,"撮影作品4":null,"撮影作品4_情報":null,"FID":72}},{"type":"Feature","id":73,"geometry":{"type":"Point","coordinates":[135.148262,34.653669999999984]},"properties":{"ロケ地ID":145,"エリア":"長田区","ロケ地名":"西神戸センター街","ロケ地名_よみ_":"にしこうべせんたーがい","郵便番号":"653-0042","住所":"神戸市長田区二葉町4-7","緯度":34.65367,"経度":135.148262,"撮影作品1":"クローズZERO","撮影作品1_情報":"拳（やべきょうすけさん）が源治（小栗旬さん）らを引き連れてナンパしているシーンを撮影","撮影作品2":null,"撮影作品2_情報":null,"撮影作品3":null,"撮影作品3_情報":null,"撮影作品4":null,"撮影作品4_情報":null,"FID":73}},{"type":"Feature","id":74,"geometry":{"type":"Point","coordinates":[135.148171,34.65203500000001]},"properties":{"ロケ地ID":146,"エリア":"長田区","ロケ地名":"六間道商店街","ロケ地名_よみ_":"ろっけんみちしょうてんがい","郵便番号":"653-0035","住所":"神戸市長田区庄田町2-5","緯度":34.652035,"経度":135.148171,"撮影作品1":"クローズZERO","撮影作品1_情報":"合コンに失敗した源治（小栗旬さん）、牧瀬（高橋努さん）らが語り合うシーン","撮影作品2":null,"撮影作品2_情報":null,"撮影作品3":null,"撮影作品3_情報":null,"撮影作品4":null,"撮影作品4_情報":null,"FID":74}},{"type":"Feature","id":75,"geometry":{"type":"Point","coordinates":[135.149606,34.654237000000016]},"properties":{"ロケ地ID":147,"エリア":"長田区","ロケ地名":"丸五市場","ロケ地名_よみ_":"まるごいちば","郵便番号":"653-0042","住所":"神戸市長田区二葉町3","緯度":34.654237,"経度":135.149606,"撮影作品1":"クローズZERO","撮影作品1_情報":"ルカ（黒木メイサさん）の実家の八百屋に源治（小栗旬さん）がたずねるシーン。名物「丸五丼」はロケ弁にも登場！","撮影作品2":null,"撮影作品2_情報":null,"撮影作品3":null,"撮影作品3_情報":null,"撮影作品4":null,"撮影作品4_情報":null,"FID":75}},{"type":"Feature","id":76,"geometry":{"type":"Point","coordinates":[135.184426,34.69084600000001]},"properties":{"ロケ地ID":148,"エリア":"中央区","ロケ地名":"兵庫県公館","ロケ地名_よみ_":"ひょうごけんこうかん","郵便番号":"650-8567","住所":"神戸市中央区下山手通4-4-1","緯度":34.690846,"経度":135.184426,"撮影作品1":"僕の彼女はサイボーグ","撮影作品1_情報":"未来のジロー（小出恵介さん）の家。さらに未来には博物館に…。","撮影作品2":null,"撮影作品2_情報":null,"撮影作品3":null,"撮影作品3_情報":null,"撮影作品4":null,"撮影作品4_情報":null,"FID":76}},{"type":"Feature","id":77,"geometry":{"type":"Point","coordinates":[135.178077,34.689389]},"properties":{"ロケ地ID":149,"エリア":"中央区","ロケ地名":"関帝廟","ロケ地名_よみ_":"かんていびょう","郵便番号":"650-0004","住所":"神戸市中央区中山手通7-3-2","緯度":34.689389,"経度":135.178077,"撮影作品1":"僕の彼女はサイボーグ","撮影作品1_情報":"彼女（綾瀬はるかさん）とジロー（小出恵介さん）が逃げ込む中華街","撮影作品2":null,"撮影作品2_情報":null,"撮影作品3":null,"撮影作品3_情報":null,"撮影作品4":null,"撮影作品4_情報":null,"FID":77}},{"type":"Feature","id":78,"geometry":{"type":"Point","coordinates":[135.189715,34.700994999999985]},"properties":{"ロケ地ID":150,"エリア":"中央区","ロケ地名":"北野町広場","ロケ地名_よみ_":"きたのまちひろば","郵便番号":"650-0002","住所":"神戸市中央区北野町3-10","緯度":34.700995,"経度":135.189715,"撮影作品1":"初雪の恋　ヴァージン・スノウ","撮影作品1_情報":"七重（宮﨑あおいさん）と友人（森田彩香さん）が語り合うシーンを撮影","撮影作品2":null,"撮影作品2_情報":null,"撮影作品3":null,"撮影作品3_情報":null,"撮影作品4":null,"撮影作品4_情報":null,"FID":78}},{"type":"Feature","id":79,"geometry":{"type":"Point","coordinates":[135.196096,34.69453599999999]},"properties":{"ロケ地ID":151,"エリア":"中央区","ロケ地名":"ミント神戸","ロケ地名_よみ_":"みんとこうべ","郵便番号":"651-0086","住所":"神戸市中央区雲井通7-1-1","緯度":34.694536,"経度":135.196096,"撮影作品1":"新宿インシデント","撮影作品1_情報":"ミント裏のスクランブル交差点の真ん中で暴力団組員が暗殺されるシーン","撮影作品2":"僕の彼女はサイボーグ","撮影作品2_情報":"彼女（綾瀬はるかさん）とジロー（小出恵介さん）が伊武雅人さんが映るビジョンをバックに歩いた。","撮影作品3":null,"撮影作品3_情報":null,"撮影作品4":null,"撮影作品4_情報":null,"FID":79}},{"type":"Feature","id":80,"geometry":{"type":"Point","coordinates":[135.190855,34.688341]},"properties":{"ロケ地ID":152,"エリア":"中央区","ロケ地名":"明石町筋","ロケ地名_よみ_":"あかしまちすじ","郵便番号":"650-0037","住所":"神戸市中央区明石町","緯度":34.688341,"経度":135.190855,"撮影作品1":"僕の彼女はサイボーグ","撮影作品1_情報":"稲妻とともに彼女（綾瀬はるかさん）が登場。カークラッシュも…。","撮影作品2":null,"撮影作品2_情報":null,"撮影作品3":null,"撮影作品3_情報":null,"撮影作品4":null,"撮影作品4_情報":null,"FID":80}},{"type":"Feature","id":81,"geometry":{"type":"Point","coordinates":[135.192617,34.688625999999985]},"properties":{"ロケ地ID":153,"エリア":"中央区","ロケ地名":"浪花町筋","ロケ地名_よみ_":"なにわまちすじ","郵便番号":"650-0035","住所":"神戸市中央区浪花町","緯度":34.688626,"経度":135.192617,"撮影作品1":"新宿インシデント","撮影作品1_情報":"朝日ビル前で暴力団の抗争シーンが。","撮影作品2":"僕の彼女はサイボーグ","撮影作品2_情報":"通りの向こうを歩く彼女（綾瀬はるかさん）に気を取られながら歩くジロー（小出恵介さん）が電柱にぶつかるシーンを撮影","撮影作品3":null,"撮影作品3_情報":null,"撮影作品4":null,"撮影作品4_情報":null,"FID":81}},{"type":"Feature","id":82,"geometry":{"type":"Point","coordinates":[135.193393,34.687652]},"properties":{"ロケ地ID":154,"エリア":"中央区","ロケ地名":"京町筋","ロケ地名_よみ_":"きょうまちすじ","郵便番号":"650-0034","住所":"神戸市中央区京町","緯度":34.687652,"経度":135.193393,"撮影作品1":"Sweet Rain 死神の精度","撮影作品1_情報":"チンピラを撃退した千葉（金城武さん）と一恵（小西真奈美さん）が手を繋いで走って逃げていくシーンを撮影","撮影作品2":null,"撮影作品2_情報":null,"撮影作品3":null,"撮影作品3_情報":null,"撮影作品4":null,"撮影作品4_情報":null,"FID":82}},{"type":"Feature","id":83,"geometry":{"type":"Point","coordinates":[135.194557,34.68934]},"properties":{"ロケ地ID":155,"エリア":"中央区","ロケ地名":"江戸町筋","ロケ地名_よみ_":"えどまちすじ","郵便番号":"650-0033","住所":"神戸市中央区江戸町","緯度":34.68934,"経度":135.194557,"撮影作品1":"アウトレイジ","撮影作品1_情報":"大友（ビートたけしさん）の組事務所。ロケ部屋無料公開中！","撮影作品2":"新宿インシデント","撮影作品2_情報":"暴対法反対デモのシーンは高砂ビル前","撮影作品3":"Sweet Rain 死神の精度","撮影作品3_情報":"一恵（小西真奈美さん）の職場は高砂ビル。向いのベルェベル美容専門学校は千葉（金城武さん）の通い詰めるＣＤショップに変身","撮影作品4":null,"撮影作品4_情報":null,"FID":83}},{"type":"Feature","id":84,"geometry":{"type":"Point","coordinates":[135.165031,34.65470099999999]},"properties":{"ロケ地ID":156,"エリア":"兵庫区","ロケ地名":"神戸市営地下鉄海岸線","ロケ地名_よみ_":"こうべしえいちかてつかいがんせん","郵便番号":"652-0875","住所":"神戸市兵庫区浜中町1","緯度":34.654701,"経度":135.165031,"撮影作品1":"交渉人　真下正義","撮影作品1_情報":"地下鉄シーンは神戸市営地下鉄海岸線・御崎公園駅　他で撮影","撮影作品2":null,"撮影作品2_情報":null,"撮影作品3":null,"撮影作品3_情報":null,"撮影作品4":null,"撮影作品4_情報":null,"FID":84}},{"type":"Feature","id":85,"geometry":{"type":"Point","coordinates":[135.127813,34.643931]},"properties":{"ロケ地ID":157,"エリア":"須磨区","ロケ地名":"神戸市立須磨海浜水族園","ロケ地名_よみ_":"こうべしりつすまかいひんすいぞくえん","郵便番号":"654-0049","住所":"神戸市須磨区若宮町1-3-5","緯度":34.643931,"経度":135.127813,"撮影作品1":"ウルトラマンメビウス＆ウルトラ兄弟","撮影作品1_情報":"ジングウジ・アヤ（いとうあいこさん）が海の研究をしている「海洋環境センター」としてたびたび登場","撮影作品2":null,"撮影作品2_情報":null,"撮影作品3":null,"撮影作品3_情報":null,"撮影作品4":null,"撮影作品4_情報":null,"FID":85}},{"type":"Feature","id":86,"geometry":{"type":"Point","coordinates":[135.249287,34.71601599999999]},"properties":{"ロケ地ID":158,"エリア":"東灘区","ロケ地名":"神戸市立御影公会堂","ロケ地名_よみ_":"こうべしりつみかげこうかいどう","郵便番号":"658-0045","住所":"神戸市東灘区御影石町4-4-1","緯度":34.716016,"経度":135.249287,"撮影作品1":"僕の彼女はサイボーグ","撮影作品1_情報":"彼女（綾瀬はるかさん）とジロー（小出恵介さん）が逃げ込んだ京劇会場","撮影作品2":null,"撮影作品2_情報":null,"撮影作品3":null,"撮影作品3_情報":null,"撮影作品4":null,"撮影作品4_情報":null,"FID":86}},{"type":"Feature","id":87,"geometry":{"type":"Point","coordinates":[135.209056,34.751584]},"properties":{"ロケ地ID":159,"エリア":"灘区","ロケ地名":"神戸市立六甲山牧場","ロケ地名_よみ_":"こうべしりつろっこうさんぼくじょう","郵便番号":"657-0101","住所":"神戸市灘区六甲山町中一里山1-1","緯度":34.751584,"経度":135.209056,"撮影作品1":"ウルトラマンメビウス＆ウルトラ兄弟","撮影作品1_情報":"モロボシ・ダン（森次晃嗣さん）は牧場主として生活していた","撮影作品2":null,"撮影作品2_情報":null,"撮影作品3":null,"撮影作品3_情報":null,"撮影作品4":null,"撮影作品4_情報":null,"FID":87}},{"type":"Feature","id":88,"geometry":{"type":"Point","coordinates":[135.184225,34.68021999999997]},"properties":{"ロケ地ID":160,"エリア":"中央区","ロケ地名":"高浜岸壁・モザイク","ロケ地名_よみ_":"たかはまがんぺき・もざいく","郵便番号":"650-0044","住所":"神戸市中央区東川崎町","緯度":34.68022,"経度":135.184225,"撮影作品1":"新宿インシデント","撮影作品1_情報":"鉄頭（ジャッキー・チェンさん）と北野（竹中直人さん）が会話するシーン","撮影作品2":"初雪の恋～ヴァージン・スノー","撮影作品2_情報":"七重（宮﨑あおいさん）と友人（森田彩香さん）が語り合うシーン","撮影作品3":null,"撮影作品3_情報":null,"撮影作品4":null,"撮影作品4_情報":null,"FID":88}}],"name":"filming_location_kobe","updated_at":1437533917000,"retrieved_at":1439285802907,"expires_at":1439372202907,"count":88}